City_ID,City,Lat,Lng,Max Temp,Humidity,Cloudiness,Wind Speed,Country,Date
0,faanui,-16.4833,-151.75,27.98,76,21,4.57,PF,1682461583
1,viedma,-40.8135,-62.9967,20.68,48,100,0.97,AR,1682461316
2,bluff,-46.6,168.3333,11.56,64,99,9.16,NZ,1682461584
3,klaksvik,62.2266,-6.589,0.51,60,100,9.22,FO,1682461585
4,hobart,-42.8794,147.3294,12.92,77,0,4.63,AU,1682461457
5,hargeysa,9.56,44.065,22.05,72,18,6.87,SO,1682461586
6,puerto escondido,15.85,-97.0667,30.46,62,40,5.14,MX,1682461554
7,mataura,-46.1927,168.8643,11.38,85,100,2.77,NZ,1682461458
8,punta arenas,-53.15,-70.9167,7.06,70,40,6.69,CL,1682461348
9,severo-kurilsk,50.6789,156.125,1.33,81,28,6.51,RU,1682461438
10,pathein,16.7833,94.7333,26.8,79,38,3.58,MM,1682461588
11,busselton,-33.65,115.3333,15.69,75,100,6.89,AU,1682461440
12,banikoara,11.2985,2.4386,32.09,31,61,1.33,BJ,1682461589
13,qaanaaq,77.484,-69.3632,-7.21,94,100,2.45,GL,1682461514
14,sao gabriel da cachoeira,-0.1303,-67.0892,24.38,94,64,1.02,BR,1682461591
15,tahoua,14.8888,5.2692,31.38,12,24,3.97,NE,1682461591
16,vaini,-21.2,-175.2,26.09,73,40,6.17,TO,1682461445
17,botou,38.0667,116.5667,7.06,58,0,3.13,CN,1682461592
18,vanavara,60.34,102.2797,-5.99,95,98,1.19,RU,1682461593
19,east london,-33.0153,27.9116,20.63,92,99,4.3,ZA,1682461473
20,saskylakh,71.9167,114.0833,-11.01,96,100,4.24,RU,1682461455
21,taree,-31.9,152.4667,16.79,97,87,1.2,AU,1682461594
22,butaritari,3.0707,172.7902,27.94,78,100,4.18,KI,1682461452
23,camacha,33.0833,-16.3333,16.68,82,20,3.6,PT,1682461595
24,sao filipe,14.8961,-24.4956,23.55,72,6,3.39,CV,1682461469
25,gillette,44.2911,-105.5022,12.51,62,75,3.6,US,1682461597
26,huarmey,-10.0681,-78.1522,26.32,72,75,4.78,PE,1682461597
27,ambulu,-8.345,113.6058,24.1,92,82,1.53,ID,1682461598
28,ketchikan,55.3422,-131.6461,9.26,53,75,8.23,US,1682461598
29,uige,-7.6087,15.0613,19.72,97,63,1.23,AO,1682461599
30,souillac,-20.5167,57.5167,24.21,88,75,3.6,MU,1682461474
31,ushuaia,-54.8,-68.3,4.81,81,75,8.75,AR,1682461430
32,codrington,-38.2667,141.9667,15.16,70,50,3.67,AU,1682461600
33,najran,17.4924,44.1277,23.36,45,19,1.19,SA,1682461601
34,puerto ayora,-0.7393,-90.3518,28.98,88,31,3.13,EC,1682461345
35,kikwit,-5.041,18.8162,22.32,94,85,0.4,CD,1682461602
36,maragogi,-9.0122,-35.2225,25.34,86,89,2.59,BR,1682461538
37,kapit,2.0167,112.9333,22.9,99,100,0.46,MY,1682461603
38,nanortalik,60.1432,-45.2371,0.98,92,99,2.66,GL,1682461604
39,hermanus,-34.4187,19.2345,15.33,80,31,2.77,ZA,1682461604
40,tuktoyaktuk,69.4541,-133.0374,-18.0,78,40,5.66,CA,1682461501
41,pokhara,28.2333,83.9833,18.15,32,15,2.95,NP,1682461420
42,kahului,20.8947,-156.47,28.01,57,75,5.66,US,1682461606
43,muros,42.7762,-9.0603,16.72,94,100,2.75,ES,1682461472
44,mlonggo,-6.5333,110.7,25.18,84,84,2.24,ID,1682461607
45,kachiry,53.0675,76.1036,11.2,54,30,5.7,KZ,1682461607
46,severobaykalsk,55.65,109.3167,-4.29,79,99,1.97,RU,1682461608
47,alta floresta,-9.8756,-56.0861,24.47,87,92,1.63,BR,1682461609
48,shelburne,44.0787,-80.2041,7.64,42,95,5.24,CA,1682461609
49,bengkulu,-3.8004,102.2655,24.38,92,99,1.21,ID,1682461447
50,paracatu,-17.2222,-46.8747,24.23,55,100,1.03,BR,1682461611
51,hithadhoo,-0.6,73.0833,28.76,75,100,5.94,MV,1682461612
52,rikitea,-23.1203,-134.9692,25.41,72,31,4.36,PF,1682461436
53,aswan,24.0934,32.907,28.61,13,0,4.12,EG,1682461546
54,thompson,55.7435,-97.8558,9.09,29,20,2.57,CA,1682461449
55,leningradskiy,69.3833,178.4167,-9.69,78,42,3.79,RU,1682461484
56,simpang empat,4.95,100.6333,24.15,94,99,1.31,MY,1682461615
57,arraial do cabo,-22.9661,-42.0278,23.92,88,20,4.12,BR,1682461418
58,esperance,-33.8667,121.9,14.93,69,18,11.62,AU,1682461441
59,dehloran,32.6941,47.2679,24.45,37,0,2.12,IR,1682461617
60,ponta delgada,37.7333,-25.6667,17.4,100,75,2.57,PT,1682461617
61,constitucion,-35.3333,-72.4167,14.27,72,100,4.58,CL,1682461618
62,ribeira grande,38.5167,-28.7,17.65,94,20,4.92,PT,1682461485
63,mount isa,-20.7333,139.5,22.87,53,99,2.57,AU,1682461619
64,mulege,26.8833,-111.9833,27.48,38,99,2.53,MX,1682461619
65,zeya,53.75,127.2667,-0.12,51,82,2.3,RU,1682461620
66,zhigansk,66.7697,123.3711,-6.44,82,59,2.29,RU,1682461493
67,tuatapere,-46.1333,167.6833,8.69,80,99,3.37,NZ,1682461544
68,adrar,20.5022,-10.0711,31.03,11,0,3.68,MR,1682461622
69,oksfjord,70.2396,22.3479,-1.9,83,78,3.09,NO,1682461623
70,kapaa,22.0752,-159.319,27.99,69,100,7.72,US,1682461508
71,hamilton,39.1834,-84.5333,16.47,39,75,4.12,US,1682461527
72,upernavik,72.7868,-56.1549,-1.9,91,100,2.71,GL,1682461521
73,longyearbyen,78.2186,15.6401,-8.09,79,0,1.03,SJ,1682461625
74,agalatovo,60.2195,30.2739,11.52,67,23,2.17,RU,1682461625
75,hilo,19.7297,-155.09,28.49,66,0,4.12,US,1682461275
76,cayenne,4.9333,-52.3333,25.02,94,75,0.0,GF,1682461391
77,coihaique,-45.5752,-72.0662,10.34,87,75,2.06,CL,1682461413
78,dong hoi,17.4833,106.6,23.93,94,100,4.92,VN,1682461627
79,khatanga,71.9667,102.5,-9.33,91,98,5.36,RU,1682461448
80,gympie,-26.1898,152.665,19.08,80,80,2.88,AU,1682461630
81,hasaki,35.7333,140.8333,16.22,85,100,10.29,JP,1682461524
82,saint-augustin,51.226,-58.6502,4.47,77,95,5.1,CA,1682461633
83,albany,42.6001,-73.9662,11.76,49,99,1.87,US,1682461384
84,miri,4.4148,114.0089,25.08,94,20,1.03,MY,1682461634
85,san luis,-33.295,-66.3356,17.99,52,80,1.56,AR,1682461468
86,barrow,71.2906,-156.7887,-11.99,85,0,1.54,US,1682461635
87,victoria,22.2855,114.1577,21.08,78,52,5.36,HK,1682461048
88,mao,39.8885,4.2658,16.31,100,0,2.57,ES,1682461637
89,seoul,37.5683,126.9778,10.76,76,75,4.12,KR,1682461005
90,nikolskoye,59.7035,30.7861,11.94,65,9,1.94,RU,1682461468
91,yulara,-25.2406,130.9889,19.61,41,100,2.16,AU,1682461638
92,rockland,41.1668,-74.0496,14.47,38,93,1.34,US,1682461607
93,marawi,7.9986,124.2928,20.92,92,83,0.93,PH,1682461639
94,provideniya,64.3833,-173.3,-3.94,50,0,7.15,RU,1682461510
95,sorland,67.667,12.6934,3.92,56,100,7.49,NO,1682461641
96,kidal,18.4411,1.4078,30.13,9,0,3.03,ML,1682461442
97,khakhea,-24.6895,23.494,19.65,37,1,0.9,BW,1682461642
98,gobabis,-22.45,18.9667,23.32,41,92,2.58,NA,1682461642
99,castro,-24.7911,-50.0119,15.61,78,92,1.43,BR,1682461352
100,yining,29.0361,114.5636,8.63,94,0,0.67,CN,1682461643
101,izacic,44.875,15.7819,7.33,98,100,2.09,BA,1682461644
102,katsuura,35.1333,140.3,17.78,86,100,8.38,JP,1682461644
103,ouro preto do oeste,-10.7481,-62.2158,23.9,93,100,0.92,BR,1682461645
104,fort nelson,58.8053,-122.7002,9.41,39,75,7.2,CA,1682461646
105,plerin,48.5425,-2.7798,10.11,87,100,2.68,FR,1682461646
106,salalah,17.0151,54.0924,29.05,74,40,3.09,OM,1682461647
107,christchurch,-43.5333,172.6333,11.64,78,75,2.57,NZ,1682461450
108,clyde river,70.4692,-68.5914,-6.87,86,100,7.72,CA,1682461610
109,anadyr,64.75,177.4833,-7.72,61,0,4.92,RU,1682461649
110,de aar,-30.6497,24.0123,15.51,48,0,1.01,ZA,1682461649
111,jamestown,42.097,-79.2353,8.07,69,75,4.63,US,1682461423
112,bumba,2.1833,22.4667,22.89,91,80,0.75,CD,1682461650
113,lebu,-37.6167,-73.65,14.04,80,100,2.46,CL,1682461460
114,olavarria,-36.8927,-60.3225,18.22,54,6,0.95,AR,1682461651
115,nome,64.5011,-165.4064,-2.96,63,0,5.14,US,1682461187
116,bambous virieux,-20.3428,57.7575,24.14,88,75,3.6,MU,1682461652
117,port alfred,-33.5906,26.891,20.1,97,99,3.89,ZA,1682461516
118,lauria,40.0465,15.8358,11.99,93,100,3.52,IT,1682461654
119,barabash,43.2,131.4833,4.81,97,100,0.87,RU,1682461654
120,tasiilaq,65.6145,-37.6368,0.09,92,59,0.85,GL,1682461472
121,basoko,1.2391,23.616,21.67,95,47,0.73,CD,1682461655
122,honiara,-9.4333,159.95,27.69,77,100,1.92,SB,1682461437
123,chabahar,25.2919,60.643,24.94,63,87,4.13,IR,1682461656
124,huilong,31.8111,121.655,11.76,85,36,3.94,CN,1682461657
125,boa vista,2.8197,-60.6733,23.99,94,100,2.57,BR,1682461391
126,chokurdakh,70.6333,147.9167,-9.4,96,44,1.34,RU,1682461499
127,ambovombe,-25.1667,46.0833,18.62,74,31,2.52,MG,1682461658
128,la ronge,55.1001,-105.2842,6.12,70,100,7.72,CA,1682461528
129,ryotsu,38.0833,138.4333,12.31,83,100,2.44,JP,1682461659
130,dali,25.7,100.1833,11.61,72,1,1.86,CN,1682461660
131,almeirim,-1.5233,-52.5817,24.58,92,90,1.44,BR,1682461660
132,yellowknife,62.456,-114.3525,6.29,52,75,5.66,CA,1682461470
133,gasa,31.5,34.4667,16.55,73,0,1.18,PS,1682461662
134,ahtopol,42.1,27.95,12.26,87,96,2.23,BG,1682461662
135,gagino,55.2314,45.0339,11.36,92,100,7.85,RU,1682461663
136,tunceli,39.1083,39.5471,10.69,49,8,1.67,TR,1682461664
137,maceio,-9.6658,-35.7353,25.69,94,75,1.54,BR,1682461664
138,geraldton,-28.7667,114.6,17.23,72,75,5.14,AU,1682460930
139,half moon bay,37.4636,-122.4286,28.82,62,0,7.72,US,1682461666
140,longyan,25.1072,117.0225,14.45,90,100,1.56,CN,1682461667
141,bathsheba,13.2167,-59.5167,24.34,94,75,2.57,BB,1682461667
142,bull savanna,17.8868,-77.5902,25.34,68,76,0.93,JM,1682461668
143,sibiti,-3.6819,13.3499,20.12,98,100,1.23,CG,1682461669
144,buala,-8.145,159.5921,28.22,76,84,2.12,SB,1682461669
145,planaltina,-15.4528,-47.6142,21.05,65,97,2.13,BR,1682461624
146,georgetown,5.4112,100.3354,26.96,94,20,0.0,MY,1682460847
147,puri,19.8,85.85,25.29,81,64,2.76,IN,1682461671
148,cape town,-33.9258,18.4232,17.17,79,0,3.6,ZA,1682461551
149,jatibonico,21.9419,-79.17,28.59,53,70,1.01,CU,1682461672
150,college,64.8569,-147.8028,1.97,44,20,3.6,US,1682461519
151,port elizabeth,-33.918,25.5701,19.06,96,100,1.54,ZA,1682461795
152,nizhnyaya tavda,57.6731,66.1725,10.41,67,12,2.54,RU,1682461795
153,carnarvon,-24.8667,113.6333,16.66,66,0,6.85,AU,1682461796
154,quirinopolis,-18.4483,-50.4517,24.87,64,96,2.14,BR,1682461796
155,baherden,38.4362,57.4316,23.93,23,39,2.52,TM,1682461797
156,plettenberg bay,-34.0527,23.3716,16.32,87,58,0.92,ZA,1682461798
157,aljezur,37.3191,-8.8033,16.18,72,19,3.84,PT,1682461798
158,bredasdorp,-34.5322,20.0403,14.45,85,20,1.2,ZA,1682461446
159,touros,-5.1989,-35.4608,25.47,87,98,4.33,BR,1682461197
160,pacific grove,36.6177,-121.9166,24.8,75,0,3.09,US,1682461800
161,george,-33.963,22.4617,15.75,88,75,3.6,ZA,1682461378
162,horqueta,-23.3428,-57.0597,19.62,99,54,1.24,PY,1682461801
163,aklavik,68.2191,-135.0107,-11.57,73,71,3.54,CA,1682461803
164,saldanha,-33.0117,17.9442,13.03,81,45,5.17,ZA,1682461803
165,stykkisholmur,65.0757,-22.7297,-0.34,62,16,4.47,IS,1682461804
166,iqaluit,63.7506,-68.5145,-1.15,100,100,0.0,CA,1682461778
167,walvis bay,-22.9575,14.5053,18.53,77,0,2.57,NA,1682461806
168,lata,40.1629,-8.3327,16.56,95,30,0.82,PT,1682461807
169,synya,65.3718,58.0387,-10.18,98,53,1.55,RU,1682461807
170,husavik,66.0449,-17.3389,-1.83,68,86,1.78,IS,1682461808
171,batagay-alyta,67.8006,130.4114,-7.72,83,56,0.84,RU,1682461809
172,palmer,42.1584,-72.3287,13.81,47,75,3.6,US,1682461810
173,baiquan,47.5833,126.0833,5.36,23,11,2.09,CN,1682461811
174,makakilo city,21.3469,-158.0858,28.18,63,20,5.14,US,1682461811
175,broken hill,-31.95,141.4333,20.69,42,46,6.91,AU,1682461812
176,coquimbo,-29.9533,-71.3436,14.85,94,75,4.63,CL,1682461539
177,mitsamiouli,-11.3847,43.2844,27.42,69,16,3.4,KM,1682461813
178,mastic,40.802,-72.8409,14.4,64,40,2.68,US,1682461561
179,dingle,10.9995,122.6711,26.68,81,22,3.54,PH,1682461815
180,myrtle beach,33.6891,-78.8867,21.17,59,0,4.12,US,1682461815
181,nantucket,41.2835,-70.0995,10.06,87,40,3.09,US,1682461816
182,avarua,-21.2078,-159.775,28.03,69,90,2.57,CK,1682461467
183,alofi,-19.0595,-169.9187,27.94,74,74,4.63,NU,1682461817
184,nkhata bay,-11.6066,34.2907,21.31,83,49,1.95,MW,1682461818
185,acurenam,1.0322,10.6488,19.49,98,100,1.14,GQ,1682461819
186,balkanabat,39.5108,54.3671,20.23,53,100,4.43,TM,1682461820
187,cabo san lucas,22.8909,-109.9124,31.45,36,0,6.17,MX,1682461526
188,isla vista,34.4133,-119.861,24.39,69,20,4.63,US,1682461821
189,hualmay,-11.0964,-77.6139,25.29,72,89,5.39,PE,1682461536
190,svarychiv,48.9622,24.1966,4.84,95,100,4.95,UA,1682461822
191,saint george,37.1041,-113.5841,22.92,17,0,4.47,US,1682461294
192,new norfolk,-42.7826,147.0587,12.72,65,0,1.36,AU,1682461427
193,ozernovskiy,51.5,156.5167,0.49,92,100,4.8,RU,1682461824
194,maicao,11.3832,-72.2432,30.0,46,18,3.79,CO,1682461824
195,yuncheng,35.0231,110.9928,12.76,61,1,2.52,CN,1682461825
196,lompoc,34.6391,-120.4579,23.9,75,100,3.6,US,1682461492
197,aden,12.7794,45.0367,28.0,81,7,5.54,YE,1682461647
198,buraydah,26.326,43.975,19.25,62,24,5.08,SA,1682461826
199,guerrero negro,27.9769,-114.0611,16.46,75,0,6.35,MX,1682461827
200,sambava,-14.2667,50.1667,24.26,93,96,2.19,MG,1682461827
201,tual,-5.6667,132.75,28.17,74,63,1.26,ID,1682461828
202,dikson,73.5069,80.5464,-5.23,95,100,6.64,RU,1682461829
203,atar,20.5169,-13.0499,33.43,15,5,2.86,MR,1682461830
204,havelock,34.8791,-76.9013,18.98,55,40,4.63,US,1682461831
205,marrakesh,31.6315,-8.0083,30.04,21,20,2.57,MA,1682461831
206,kamenka,51.3223,42.7678,9.71,96,36,5.25,RU,1682461832
207,boende,-0.2167,20.8667,23.86,79,81,0.99,CD,1682461832
208,moshupa,-24.7782,25.4155,20.2,45,3,2.12,BW,1682461833
209,talnakh,69.4865,88.3972,-0.44,87,98,2.51,RU,1682461833
210,manggar,-2.8833,108.2667,26.4,82,97,1.16,ID,1682461834
211,mirabad,30.4362,61.8383,25.91,19,90,4.12,AF,1682461835
212,kimbe,-5.5502,150.1429,29.38,72,74,0.35,PG,1682461835
213,nenjiang,49.1833,125.2167,4.3,31,100,1.69,CN,1682461836
214,ternate,0.8,127.4,27.54,80,14,1.7,ID,1682461837
215,tabou,4.423,-7.3528,26.74,86,100,3.12,CI,1682461838
216,kaitangata,-46.2817,169.8464,11.07,56,74,5.73,NZ,1682461839
217,nouadhibou,20.931,-17.0347,18.99,88,20,6.69,MR,1682461839
218,tambacounda,13.7539,-13.7586,33.33,18,1,0.9,SN,1682461840
219,norman wells,65.282,-126.8329,-7.98,57,75,6.17,CA,1682461519
220,port blair,11.6667,92.75,27.19,78,97,1.66,IN,1682461841
221,belyy yar,53.6039,91.3903,-3.06,80,0,3.0,RU,1682461842
222,westport,41.1415,-73.3579,14.85,48,100,3.09,US,1682461421
223,majene,-3.5403,118.9707,25.76,87,87,1.75,ID,1682461844
224,bintulu,3.1667,113.0333,25.23,100,20,0.0,MY,1682461844
225,san cristobal,7.7669,-72.225,24.1,95,56,1.14,VE,1682461845
226,hagere selam,6.4833,38.5167,8.17,92,97,1.3,ET,1682461845
227,poum,-20.2333,164.0167,25.9,77,100,4.73,NC,1682461519
228,paraiso,9.8383,-83.8656,23.48,85,91,1.51,CR,1682461847
229,tambo,-14.8,-73.9167,4.46,89,94,3.08,PE,1682461848
230,ola,59.5833,151.2833,0.08,77,98,2.82,RU,1682461848
231,svetlogorsk,52.6333,29.7333,10.45,69,88,2.03,BY,1682461849
232,luderitz,-26.6481,15.1594,17.07,81,0,5.35,NA,1682461850
233,nkan,0.3833,9.7833,24.87,97,100,3.14,GA,1682461850
234,yuzhno-kurilsk,44.0306,145.8556,5.08,81,100,10.12,RU,1682461851
235,deputatskiy,69.3,139.9,-5.32,90,86,1.29,RU,1682461851
236,oriximina,-1.7656,-55.8661,25.16,86,24,0.46,BR,1682461852
237,atuona,-9.8,-139.0333,27.43,77,15,7.48,PF,1682461461
238,roma,43.2128,-75.4557,10.46,53,75,4.63,US,1682461853
239,kodiak,57.79,-152.4072,4.73,81,75,6.69,US,1682461503
240,bethel,41.3712,-73.414,13.74,47,100,2.06,US,1682461520
241,zabol,32.25,67.25,15.74,31,96,4.52,AF,1682461855
242,san juan,-31.5375,-68.5364,22.0,32,30,1.1,AR,1682461855
243,bubaque,11.2833,-15.8333,25.77,69,2,9.06,GW,1682461529
244,fortuna,40.5982,-124.1573,18.85,67,8,1.34,US,1682461511
245,hobyo,5.3505,48.5268,28.52,75,96,5.86,SO,1682461439
246,mushie,-3.0167,16.9,22.95,90,64,0.45,CD,1682461858
247,lasa,46.6166,10.7002,5.49,89,23,2.69,IT,1682461858
248,antofagasta,-23.65,-70.4,18.6,81,46,2.09,CL,1682461702
249,rio gallegos,-51.6226,-69.2181,6.03,61,0,2.57,AR,1682461860
250,teya,60.3778,92.6267,-4.56,96,95,1.51,RU,1682461860
251,kaeo,-35.1,173.7833,19.07,81,50,4.36,NZ,1682461861
252,ribeira brava,32.65,-17.0667,20.4,59,65,0.36,PT,1682461862
253,tiksi,71.6872,128.8694,-14.29,100,100,1.13,RU,1682461515
254,thohoyandou,-22.9456,30.485,18.7,53,3,1.01,ZA,1682461863
255,nazare,-13.035,-39.0144,22.94,93,0,1.14,BR,1682461863
256,huambo,-12.7761,15.7392,16.89,82,69,2.06,AO,1682461613
257,road town,18.4167,-64.6167,28.05,65,20,2.06,VG,1682461865
258,cockburn town,21.4612,-71.1419,25.88,72,51,5.22,TC,1682461865
259,mar del plata,-38.0023,-57.5575,18.38,95,100,1.54,AR,1682461517
260,uinskoye,56.8817,56.5813,11.76,66,100,2.33,RU,1682461867
261,kruisfontein,-34.0033,24.7314,16.6,94,79,1.25,ZA,1682461867
262,katobu,-4.9408,122.5276,24.47,91,98,1.09,ID,1682461868
263,mandalgovi,45.7625,106.2708,6.27,63,100,7.98,MN,1682461868
264,paamiut,61.994,-49.6678,0.75,98,100,2.61,GL,1682461869
265,cidreira,-30.1811,-50.2056,21.93,88,90,7.99,BR,1682461869
266,turan,16.0678,108.2208,25.99,89,40,0.0,VN,1682461870
267,praia da vitoria,38.7333,-27.0667,18.14,82,20,5.08,PT,1682461650
268,krasnoselkup,65.7,82.4667,-7.24,92,100,3.83,RU,1682461871
269,vieux-habitants,16.0589,-61.7659,25.76,75,28,1.53,GP,1682461872
270,sioux lookout,50.1001,-91.917,6.04,33,20,4.12,CA,1682461860
271,baoding,38.8511,115.4903,9.86,19,1,0.78,CN,1682461873
272,ponta do sol,32.6667,-17.1,20.4,60,54,2.23,PT,1682461439
273,salinopolis,-0.6136,-47.3561,26.12,85,68,3.85,BR,1682461874
274,dubuque,42.4833,-90.8668,10.49,41,20,2.57,US,1682461874
275,castro verde,37.6983,-8.0858,18.68,66,8,2.99,PT,1682461875
276,mangrol,21.1167,70.1167,26.01,76,15,4.68,IN,1682461875
277,diamantino,-14.4086,-56.4461,25.88,71,73,1.3,BR,1682461876
278,chuy,-33.6971,-53.4616,18.99,90,96,2.11,UY,1682461500
279,lerwick,60.1545,-1.1494,2.0,63,81,8.45,GB,1682461877
280,narrabri,-30.3167,149.7833,18.52,48,0,1.09,AU,1682461878
281,elizabeth city,36.2946,-76.2511,16.12,59,0,5.66,US,1682461802
282,polson,47.6936,-114.1632,14.29,44,95,2.68,US,1682461879
283,vanimo,-2.6741,141.3028,27.7,81,58,1.96,PG,1682461879
284,saint-pierre,-21.3393,55.4781,24.2,83,100,2.06,RE,1682461543
285,meulaboh,4.1363,96.1285,25.02,89,79,1.46,ID,1682461880
286,portland,45.5234,-122.6762,19.89,50,20,3.09,US,1682461299
287,port lincoln,-34.7333,135.8667,21.26,52,100,7.1,AU,1682461881
288,hofn,64.2539,-15.2082,-0.08,66,98,0.9,IS,1682461687
289,harper,4.375,-7.7169,26.93,85,100,3.39,LR,1682461882
290,marabba,12.35,32.1833,27.7,58,84,9.33,SD,1682461883
291,port pirie,-33.1833,138.0167,22.81,41,100,5.88,AU,1682461884
292,torbay,47.6666,-52.7314,1.88,96,100,8.05,CA,1682461506
293,hambantota,6.1241,81.1185,26.6,85,100,2.21,LK,1682461885
294,tocopilla,-22.092,-70.1979,20.5,73,18,2.51,CL,1682461886
295,matai,-8.3,31.5167,14.58,98,7,2.05,TZ,1682461887
296,tando jam,25.4272,68.5362,29.07,33,100,6.4,PK,1682461887
297,kismayo,-0.3582,42.5454,27.37,79,100,3.07,SO,1682461888
298,borogontsy,62.6683,131.1683,-1.02,89,86,2.73,RU,1682461888
299,ahipara,-35.1667,173.1667,18.12,64,100,5.96,NZ,1682461531
300,novocheremshansk,54.3571,50.1666,11.78,89,100,5.22,RU,1682461890
301,pisco,-13.7,-76.2167,24.45,73,0,6.69,PE,1682461637
302,porto santo,33.072,-16.3415,18.21,82,20,3.6,PT,1682461891
303,balaipungut,1.05,101.2833,23.31,98,100,0.28,ID,1682461891
304,tessalit,20.1986,1.0114,28.72,12,0,3.79,ML,1682461892
305,eyl,7.9803,49.8164,27.6,80,38,3.47,SO,1682461892
306,pljevlja,43.3333,19.3333,6.18,96,98,0.88,ME,1682461893
307,sao joao da barra,-21.6403,-41.0511,24.05,86,4,3.39,BR,1682461893
308,saint-philippe,-21.3585,55.7679,23.77,84,13,1.28,RE,1682461491
309,kavaratti,10.5669,72.642,27.45,69,46,2.45,IN,1682461436
310,airai,-8.9266,125.4092,15.51,96,69,1.7,TL,1682461531
311,dutlwe,-23.9833,23.9,19.52,50,5,2.97,BW,1682461896
312,remontnoye,46.5614,43.6501,8.83,90,2,3.83,RU,1682461897
313,goderich,43.7501,-81.7165,6.62,52,21,2.06,CA,1682461897
314,omboue,-1.5746,9.2618,24.42,90,100,1.06,GA,1682461898
315,srednekolymsk,67.45,153.6833,-2.05,95,100,1.75,RU,1682461898
316,taoudenni,22.6783,-3.9836,30.42,12,3,5.08,ML,1682461899
317,coruripe,-10.1256,-36.1756,24.6,87,90,2.52,BR,1682461899
318,sandakan,5.8402,118.1179,25.82,94,20,1.03,MY,1682461900
319,ercis,39.0287,43.3586,7.22,68,7,0.64,TR,1682461900
320,port macquarie,-31.4333,152.9167,17.16,62,95,2.42,AU,1682461901
321,jiuquan,39.7432,98.5174,8.6,40,73,1.13,CN,1682461902
322,sakakah,29.9697,40.2064,21.76,16,13,4.0,SA,1682461902
323,breves,-1.6822,-50.4803,23.84,95,55,0.96,BR,1682461837
324,mumford,5.2618,-0.759,27.74,84,97,4.73,GH,1682461904
325,vila franca do campo,37.7167,-25.4333,17.23,94,70,2.68,PT,1682461905
326,pevek,69.7008,170.3133,-11.57,83,11,1.24,RU,1682461450
327,tamale,9.4008,-0.8393,29.81,55,90,5.05,GH,1682461906
328,concepcion,-36.827,-73.0498,13.89,82,0,2.57,CL,1682461907
329,mattru,7.6244,-11.8332,23.59,95,94,1.11,SL,1682461907
330,yerbogachen,61.2767,108.0108,-5.85,95,93,1.94,RU,1682461908
331,itoman,26.1247,127.6694,20.22,96,75,9.26,JP,1682461908
332,raudeberg,61.9875,5.1352,2.37,75,80,9.65,NO,1682461909
333,san roque,36.2107,-5.3842,18.46,82,1,3.09,ES,1682461909
334,namtsy,62.7161,129.6658,-2.13,90,97,2.59,RU,1682461910
335,lichinga,-13.3128,35.2406,12.69,95,3,2.27,MZ,1682461910
336,asau,46.4333,26.4,9.6,93,99,2.3,RO,1682461911
337,raikot,30.65,75.6,24.16,29,46,2.27,IN,1682461912
338,karratha,-20.7377,116.8463,24.74,43,100,2.7,AU,1682461913
339,krumbach,48.2418,10.3632,6.58,91,75,2.3,DE,1682461913
340,evensk,61.95,159.2333,-1.7,74,51,3.31,RU,1682461914
341,uttarkashi,30.7333,78.45,14.04,43,100,3.12,IN,1682461914
342,yilan,24.757,121.753,21.68,99,100,2.39,TW,1682461915
343,kungurtug,50.5994,97.5228,-6.49,81,96,3.6,RU,1682461915
344,champerico,14.3,-91.9167,34.3,61,45,5.76,GT,1682461916
345,mariana,-20.3778,-43.4161,17.98,98,62,0.67,BR,1682461840
346,aksarka,66.5606,67.7975,-10.18,90,5,3.03,RU,1682461917
347,letlhakane,-21.4167,25.5833,23.44,38,4,2.63,BW,1682461918
348,bako,5.7833,36.5667,16.21,98,100,0.91,ET,1682461918
349,ancud,-41.8697,-73.8203,11.59,96,100,3.04,CL,1682461919
350,quatre cocos,-20.2078,57.7625,24.06,86,30,2.34,MU,1682461919
351,bilibino,68.0546,166.4372,-4.34,56,32,0.08,RU,1682461920
352,cherskiy,68.75,161.3,-4.43,74,56,1.94,RU,1682461920
353,verkhnyaya inta,65.9811,60.3094,-5.47,93,13,3.4,RU,1682461921
354,toora-khem,52.4675,96.11,-5.98,77,41,1.77,RU,1682461921
355,verkhoyansk,67.5447,133.385,-6.88,90,93,1.03,RU,1682461922
356,talkha,31.0539,31.3779,14.77,74,0,3.02,EG,1682461923
357,petatlan,17.5167,-101.2667,31.89,57,18,3.79,MX,1682461924
358,tilichiki,60.4667,166.1,-7.77,84,100,3.11,RU,1682461924
359,homa bay,-0.5273,34.4571,18.02,95,100,1.32,KE,1682461925
360,conde,-7.2597,-34.9075,26.7,89,75,1.54,BR,1682461925
361,waterloo,43.4668,-80.5164,8.69,66,75,6.17,CA,1682461296
362,lar,26.2039,83.9717,25.74,28,22,1.88,IN,1682461926
363,gat,31.61,34.7642,17.44,77,0,0.5,IL,1682461927
364,saucillo,28.0167,-105.2833,30.83,5,24,3.59,MX,1682461928
365,san patricio,28.017,-97.5169,26.05,72,86,7.1,US,1682461496
366,bonavista,48.6499,-53.1147,0.33,96,100,8.0,CA,1682461462
367,kandrian,-6.2167,149.55,27.64,80,96,0.5,PG,1682461930
368,pakaur,24.6333,87.85,26.61,38,88,0.63,IN,1682461930
369,poopo,-18.3667,-66.9667,10.37,16,2,4.04,BO,1682461931
370,alvaraes,-3.2208,-64.8042,24.93,90,77,1.39,BR,1682461931
371,kenora,49.8167,-94.4337,6.54,36,40,1.54,CA,1682461886
372,tsiroanomandidy,-18.7667,46.0333,16.15,85,0,1.4,MG,1682461932
373,faya,18.3851,42.4509,14.06,60,1,1.95,SA,1682461433
374,chiredzi,-21.05,31.6667,19.22,79,0,1.84,ZW,1682461934
375,olga,43.7444,135.2892,4.99,80,95,0.27,RU,1682461934
376,nemuro,43.3236,145.575,5.74,83,100,13.82,JP,1682461935
377,berlevag,70.8578,29.0864,1.0,85,89,3.47,NO,1682461935
378,mizdah,31.4451,12.9801,20.96,29,33,2.96,LY,1682461936
379,garissa,-0.4536,39.6401,25.89,81,95,3.93,KE,1682461937
380,cam ranh,11.9214,109.1591,26.98,74,20,2.57,VN,1682461937
381,fairbanks,64.8378,-147.7164,2.27,44,40,3.6,US,1682461800
382,bandarbeyla,9.4942,50.8122,27.89,77,37,4.62,SO,1682461938
383,moorhead,46.8739,-96.7676,11.1,40,0,1.79,US,1682461939
384,buin,-33.7333,-70.75,25.24,47,100,1.28,CL,1682461940
385,sakaiminato,35.55,133.2333,10.99,100,75,3.09,JP,1682461941
386,mursalimkino,55.0379,58.5585,11.79,67,100,1.85,RU,1682461941
387,talaya,61.3833,152.75,-4.8,87,97,1.09,RU,1682461942
388,halifax,44.6453,-63.5724,7.94,64,40,4.63,CA,1682461640
389,yangambi,0.8102,24.4336,20.74,99,61,1.26,CD,1682461943
390,progreso,21.2833,-89.6667,34.06,71,73,4.86,MX,1682461943
391,nizwa,22.9333,57.5333,23.54,59,50,2.35,OM,1682461453
392,ulcinj,41.9294,19.2244,15.55,86,84,3.51,ME,1682461945
393,russell,32.3502,-85.1999,26.6,53,63,1.09,US,1682461945
394,svay rieng,11.0879,105.7993,27.54,75,100,2.64,KH,1682461946
395,manado,1.487,124.8455,25.43,88,20,1.03,ID,1682461946
396,belmonte,-15.8631,-38.8828,24.54,85,1,2.86,BR,1682461947
397,sola,-13.8833,167.55,27.08,75,35,1.54,VU,1682461947
398,lorengau,-2.0226,147.2712,29.41,72,57,3.66,PG,1682461948
399,tabuk,17.4189,121.4443,24.04,87,79,1.36,PH,1682461948
400,lillooet,50.6856,-121.942,15.32,50,98,1.85,CA,1682461949
401,cairns,-16.9167,145.7667,24.97,78,40,4.12,AU,1682461950
402,presidencia roque saenz pena,-26.7852,-60.4388,19.06,69,0,1.63,AR,1682461951
403,olinda,-8.0089,-34.8553,25.85,89,75,6.17,BR,1682461952
404,olafsvik,64.8945,-23.7142,0.71,63,20,6.76,IS,1682461953
405,nacogdoches,31.6002,-94.6335,21.85,69,100,2.06,US,1682461954
406,the valley,18.217,-63.0578,27.08,78,40,2.57,AI,1682461954
407,fomboni,-12.28,43.7425,28.17,67,100,7.45,KM,1682461955
408,orange walk,17.8333,-88.8333,32.06,49,73,4.66,BZ,1682461955
409,rapid valley,44.0625,-103.1463,13.76,52,75,5.81,US,1682461956
410,kadoma,34.7333,135.5833,17.03,93,75,4.12,JP,1682461957
411,zarate,-34.0981,-59.0286,18.8,86,82,1.34,AR,1682461957
412,sinnamary,5.3833,-52.95,25.48,90,79,3.63,GF,1682461958
413,debica,50.0515,21.4114,8.3,89,100,6.28,PL,1682461958
414,luanda,-8.8368,13.2343,27.0,94,75,1.54,AO,1682461885
415,mehtar lam,34.6714,70.2094,21.62,47,95,1.48,AF,1682461959
416,baker city,44.7749,-117.8344,15.84,36,0,2.21,US,1682461847
417,abu samrah,35.3029,37.1841,14.81,65,4,2.17,SY,1682461515
418,narsaq,60.9167,-46.05,6.12,90,98,0.75,GL,1682461481
419,mogadishu,2.0371,45.3438,28.13,76,91,3.34,SO,1682461961
420,vila velha,-20.3297,-40.2925,24.97,92,75,3.6,BR,1682461476
421,odweyne,9.4092,45.064,23.06,68,14,2.74,SO,1682461962
422,novikovo,51.1537,37.8879,9.64,90,100,2.77,RU,1682461963
423,thunder bay,48.4001,-89.3168,5.99,45,100,3.6,CA,1682461560
424,hovd,48.0056,91.6419,-4.47,42,23,4.09,MN,1682461964
425,harrison,30.4091,-89.0436,26.01,69,0,4.12,US,1682461964
426,lagoa,39.05,-27.9833,16.3,86,44,7.41,PT,1682461965
427,yar-sale,66.8333,70.8333,-15.41,93,76,3.05,RU,1682461965
428,khanu woralaksaburi,16.0617,99.8606,28.5,61,65,3.7,TH,1682461966
429,senneterre,48.3835,-77.2328,4.35,84,94,1.19,CA,1682461966
430,muhos,64.808,25.9931,1.88,100,100,4.29,FI,1682461967
431,zhuhai,22.2769,113.5678,18.88,77,40,7.2,CN,1682461968
432,san policarpo,12.1791,125.5072,27.2,79,49,2.6,PH,1682461968
433,ca mau,9.1769,105.15,26.51,80,100,2.06,VN,1682461969
434,byron bay,-28.65,153.6167,17.06,75,93,5.86,AU,1682461494
435,san joaquin,37.9333,-121.3011,28.89,23,0,4.12,US,1682461970
436,pak phanang,8.3511,100.202,26.01,78,100,1.61,TH,1682461970
437,sao felix do xingu,-6.6447,-51.995,23.87,87,100,1.05,BR,1682461971
438,penalva,-3.2942,-45.1736,24.03,95,100,1.35,BR,1682461971
439,erzin,36.9559,36.2,13.35,80,96,0.79,TR,1682461972
440,maryborough,-25.5333,152.7,24.56,51,12,5.25,AU,1682461972
441,orocue,4.7912,-71.3354,27.57,63,50,2.34,CO,1682461973
442,visby,57.6409,18.296,7.12,93,100,3.6,SE,1682461973
443,eunice,30.4944,-92.4176,25.51,60,63,2.82,US,1682461974
444,tromso,69.6496,18.957,-0.9,64,0,4.63,NO,1682461975
445,broome,42.2506,-75.833,11.92,41,75,4.63,US,1682461459
446,paita,-5.0892,-81.1144,26.81,72,84,3.59,PE,1682461976
447,qui nhon,13.7667,109.2333,25.01,86,98,3.03,VN,1682461977
448,soldotna,60.4878,-151.0583,4.01,70,20,4.63,US,1682461978
449,axim,4.8699,-2.2405,27.27,85,97,3.95,GH,1682461978
450,havre-saint-pierre,50.2334,-63.5986,8.2,53,0,2.06,CA,1682461979
451,masingbi,8.7833,-11.95,24.32,90,100,1.12,SL,1682461980
452,santa cruz del sur,20.7147,-77.9956,27.37,66,33,4.21,CU,1682461980
453,brae,60.3964,-1.353,4.16,58,90,8.22,GB,1682461981
454,jiazi,22.8779,116.067,18.14,75,28,4.62,CN,1682461981
455,sobolevo,54.4299,31.8996,8.84,80,36,1.43,RU,1682461982
456,vardo,70.3705,31.1107,-2.01,93,73,5.66,NO,1682461983
457,okha,53.5739,142.9478,1.75,71,100,8.42,RU,1682461938
458,morales,2.757,-76.6172,17.25,95,59,0.62,CO,1682461984
459,fredonia,42.4401,-79.3317,7.9,73,100,5.14,US,1682461985
460,luwuk,-0.9516,122.7875,26.86,85,84,0.53,ID,1682461985
461,la palma,33.8464,-118.0467,26.39,68,75,4.63,US,1682461460
462,bow island,49.8668,-111.3684,19.56,27,97,7.72,CA,1682461986
463,ulladulla,-35.35,150.4667,18.67,70,9,1.08,AU,1682461987
464,eldorado,-23.7869,-54.2836,22.27,91,100,2.75,BR,1682461475
465,nabire,-3.3667,135.4833,26.49,84,72,1.14,ID,1682461989
466,mana,5.6592,-53.7767,25.46,91,96,3.38,GF,1682461489
467,narasannapeta,18.4167,84.05,26.54,82,99,1.18,IN,1682461990
468,hirara,24.8,125.2833,20.15,94,100,8.75,JP,1682461990
469,yurino,56.2942,46.3039,11.82,91,100,6.88,RU,1682461991
470,pangody,65.85,74.4859,-7.44,98,99,1.63,RU,1682461992
471,plouzane,48.3833,-4.6167,10.18,78,100,5.66,FR,1682461993
472,orissaare,58.5592,23.0826,8.31,95,91,3.16,EE,1682461993
473,richards bay,-28.783,32.0377,20.21,95,10,1.34,ZA,1682461994
474,arkhara,49.4212,130.0842,3.44,39,0,5.74,RU,1682461994
475,bemidji,47.4736,-94.8803,9.54,32,100,2.57,US,1682461995
476,waipawa,-41.4122,175.5153,10.26,82,87,4.84,NZ,1682461995
477,inta,66.0317,60.1659,-5.31,92,11,3.69,RU,1682461996
478,orlik,52.5178,99.825,-7.32,93,100,2.72,RU,1682461997
479,challapata,-18.9,-66.7667,10.34,21,0,0.76,BO,1682461997
480,mosquera,4.7059,-74.2302,15.05,77,75,2.06,CO,1682461814
481,beloha,-25.1667,45.05,17.03,78,5,1.86,MG,1682461999
482,ostrovnoy,68.0531,39.5131,-10.01,93,27,3.19,RU,1682461999
483,ostersund,63.1792,14.6357,-1.75,100,100,1.54,SE,1682462000
484,tolmin,46.183,13.7332,10.32,81,96,0.89,SI,1682462000
485,xihe,31.6864,113.4659,12.21,89,19,2.36,CN,1682462001
486,gubkinskiy,64.434,76.5026,-6.55,95,100,2.28,RU,1682462001
487,corinto,37.9407,22.9573,14.94,76,47,2.56,GR,1682462002
488,bonham,33.5773,-96.1783,19.26,66,100,6.69,US,1682462003
489,santa cruz,-17.8,-63.1667,24.7,78,75,1.54,BO,1682462004
490,port hardy,50.6996,-127.4199,10.1,71,100,3.09,CA,1682461866
491,el tigre,8.8875,-64.2454,23.93,83,99,3.65,VE,1682462005
492,kudahuvadhoo,2.6708,72.8944,28.43,75,100,4.09,MV,1682462005
493,tazovskiy,67.4667,78.7,-12.5,98,99,3.44,RU,1682462006
494,kamalpur,24.2,91.8333,22.18,72,2,1.06,IN,1682462007
495,leninskoye,41.7589,69.3864,14.01,46,0,2.01,KZ,1682462007
496,catuday,16.2923,119.8062,25.98,80,35,1.53,PH,1682462008
497,aktas,49.7789,72.9608,4.86,58,74,2.54,KZ,1682462009
498,shujaabad,29.8797,71.2931,28.03,17,97,1.88,PK,1682462010
499,karasjok,69.4719,25.5112,-6.98,88,100,1.48,NO,1682462011
500,nhulunbuy,-12.2333,136.7667,26.34,89,100,6.69,AU,1682462011
501,margate,51.3813,1.3862,6.5,74,54,0.89,GB,1682461854
502,milas,37.3164,27.7839,11.64,87,75,1.03,TR,1682462012
503,san jose,37.3394,-121.895,28.8,29,40,6.71,US,1682461860
504,naryan-mar,67.6713,53.087,-7.13,88,7,6.26,RU,1682462013
505,laem sing,12.4816,102.0738,27.28,82,100,1.05,TH,1682462014
506,sukhumi,43.0033,41.0153,11.79,49,37,3.07,GE,1682462014
507,namibe,-15.1961,12.1522,23.16,82,65,3.47,AO,1682462015
508,khash,28.2211,61.2158,15.3,57,47,0.97,IR,1682462015
509,bonnyville,54.2668,-110.735,5.89,78,100,7.17,CA,1682462016
510,preeceville,51.95,-102.6677,5.82,68,100,5.81,CA,1682462016
511,aripuana,-9.1667,-60.6333,23.07,97,74,0.81,BR,1682462017
512,goure,13.9835,10.2704,29.95,20,4,1.98,NE,1682462018
513,chapais,49.7834,-74.8492,6.88,93,100,3.05,CA,1682462018
514,washougal,45.5826,-122.3534,19.82,51,0,3.6,US,1682462019
515,catalina foothills,32.2979,-110.9187,32.03,11,0,6.69,US,1682462020
516,mount gambier,-37.8333,140.7667,17.77,60,52,4.31,AU,1682462020
517,kotelnich,58.3089,48.348,11.74,93,100,2.56,RU,1682462021
518,flagstaff,35.1981,-111.6513,20.33,15,0,7.72,US,1682461801
519,misratah,32.3754,15.0925,22.03,42,58,1.83,LY,1682462023
520,bafq,31.6128,55.4107,21.49,40,86,0.66,IR,1682462024
521,grand-santi,4.25,-54.3833,23.58,98,100,1.09,GF,1682462024
522,warmbad,-28.45,18.7333,21.6,38,0,3.43,NA,1682462025
523,bay roberts,47.5999,-53.2648,2.3,91,100,3.58,CA,1682462025
524,vestmanna,62.1564,-7.1664,-0.49,86,40,5.14,FO,1682462026
525,ambilobe,-13.2,49.05,23.48,96,46,1.39,MG,1682462026
526,mataram,-8.5833,116.1167,24.45,84,89,1.49,ID,1682462027
527,baruun-urt,46.6806,113.2792,3.19,20,47,6.62,MN,1682462028
528,isangel,-19.55,169.2667,27.06,89,40,1.03,VU,1682461475
529,naraini,25.1833,80.4833,26.4,30,84,1.46,IN,1682462029
530,sitka,57.0531,-135.33,5.94,70,100,5.14,US,1682461493
531,los llanos de aridane,28.6585,-17.9182,18.86,90,0,3.09,ES,1682461484
532,kununurra,-15.7667,128.7333,21.99,88,80,0.0,AU,1682461738
533,anzio,41.4853,12.6179,15.56,75,92,4.56,IT,1682462031
534,saint-louis,16.3333,-15.0,30.8,30,2,7.35,SN,1682462032
535,eufaula,31.8913,-85.1455,27.02,36,0,2.06,US,1682462032
536,vila do maio,15.1333,-23.2167,22.44,78,19,6.35,CV,1682462033
537,port keats,-14.25,129.55,26.13,75,59,3.11,AU,1682462034
538,sagarejo,41.734,45.3315,12.24,47,11,1.62,GE,1682462035
539,nakasongola,1.3089,32.4564,17.85,97,100,1.39,UG,1682462035
540,trairi,-3.2778,-39.2689,25.88,82,100,2.78,BR,1682461787
541,rincon,32.296,-81.2354,20.48,82,100,3.6,US,1682462009
542,hecelchakan,20.1667,-90.1333,32.52,48,76,3.79,MX,1682462037
543,merauke,-8.4667,140.3333,26.78,88,90,5.06,ID,1682462038
544,mehamn,71.0357,27.8492,0.97,93,100,3.6,NO,1682462038
545,saint-joseph,-21.3667,55.6167,23.21,85,8,1.56,RE,1682462039
546,aitape,-3.1374,142.3475,28.08,80,41,1.55,PG,1682462040
547,nador,35.174,-2.9287,19.14,45,0,0.51,MA,1682462040
548,ankang,32.68,109.0172,12.05,79,53,0.56,CN,1682462041
549,vao,-22.6667,167.4833,24.09,83,100,8.45,NC,1682461444
550,kholtoson,50.2981,103.3097,-1.27,80,100,4.17,RU,1682462042
551,nishihara,26.1842,127.7558,19.82,97,100,9.26,JP,1682462042
552,port moresby,-9.4431,147.1797,24.68,88,20,1.54,PG,1682462043
553,sampit,-2.5333,112.95,24.38,95,97,0.52,ID,1682462044
